var twitters = {"features":[{"geometry":{"coordinates":[-0.12731805,51.50711486],"type":"Point"},"id":"748412837584838656","type":"Feature","properties":{"retweet":0,"text":"Throwing back because it's Thursday .. Can't wait to see this cutie in 2 weeks London wlnk","time":"30-06-2016 02:08:19","user":{"name":"Joanne Kate Mount","id":"104287597","screenName":"joannekate_X","url":"www.twitter.com\/joannekate_X"}}},{"geometry":{"coordinates":[75.9833,32.5333],"type":"Point"},"id":"748412865074257922","type":"Feature","properties":{"retweet":0,"text":"Enjoying Cloudy Weather  Dalhousie, India wlnk","time":"30-06-2016 02:08:26","user":{"name":"Sushant Sharma","id":"289138867","screenName":"beingsushant999","url":"www.twitter.com\/beingsushant999"}}},{"geometry":{"coordinates":[9.17952,45.46318],"type":"Point"},"id":"748412888344367104","type":"Feature","properties":{"retweet":0,"text":"Each day is a black page in the diary of your life. milan digitallife  Ready 2 Fly wlnk","time":"30-06-2016 02:08:32","user":{"name":"Frenci Bello","id":"15351859","screenName":"frencibello","url":"www.twitter.com\/frencibello"}}},{"geometry":{"coordinates":[-0.4596506,51.47051829],"type":"Point"},"id":"748412937228926977","type":"Feature","properties":{"retweet":0,"text":"Just posted a video  Heathrow International Airport, London, UK wlnk","time":"30-06-2016 02:08:43","user":{"name":"?o? dog je??er?on","id":"329426968","screenName":"AWildNoelle","url":"www.twitter.com\/AWildNoelle"}}},{"geometry":{"coordinates":[11.26262248,43.76876414],"type":"Point"},"id":"749383621056888832","type":"Feature","properties":{"retweet":0,"text":"Just posted a photo  Firenze - Toscane (Italia) wlnk","time":"03-07-2016 06:25:52","user":{"name":"El Pony de Valpo ?","id":"255765076","screenName":"DaglasPony","url":"www.twitter.com\/DaglasPony"}}},{"geometry":{"coordinates":[-0.10262994,51.49094476],"type":"Point"},"id":"749383623942496256","type":"Feature","properties":{"retweet":0,"text":"Numinous Feeling. GLOW ?  Wembley Stadium, London wlnk","time":"03-07-2016 06:25:53","user":{"name":"?r?tidayo Zaccheaus","id":"239070619","screenName":"Iretidee99","url":"www.twitter.com\/Iretidee99"}}},{"geometry":{"coordinates":[103.17964746,1.91835663],"type":"Point"},"id":"749383658696474624","type":"Feature","properties":{"retweet":0,"text":"I'm at Plaza Tol Ayer Hitam in Johor, Malaysia wlnk","time":"03-07-2016 06:26:01","user":{"name":"NrftnNjw\u2022","id":"433279213","screenName":"NajwaFateen","url":"www.twitter.com\/NajwaFateen"}}},{"geometry":{"coordinates":[0.00352605,51.50223895],"type":"Point"},"id":"749383731773788161","type":"Feature","properties":{"retweet":0,"text":"Some wind chime action with some of our favourite people!  London O2 Arena, Greenwich wlnk","time":"03-07-2016 06:26:19","user":{"name":"Maria Graham","id":"23097081","screenName":"mrsmariagraham","url":"www.twitter.com\/mrsmariagraham"}}},{"geometry":{"coordinates":[-71.1062472,42.3296596],"type":"Point"},"id":"749383740443557888","type":"Feature","properties":{"retweet":0,"text":"On the Hill.  New England Baptist Hospital wlnk","time":"03-07-2016 06:26:21","user":{"name":"Marcus Hamblin","id":"79810049","screenName":"DesignStylDaily","url":"www.twitter.com\/DesignStylDaily"}}},{"geometry":{"coordinates":[-80.18944,25.9415],"type":"Point"},"id":"749383763398840320","type":"Feature","properties":{"retweet":0,"text":"Accident, two lanes blocked in MiamiGardens on I-95 NB approaching Miami Gardens Dr, stop and go traffic back to Floridas Tpke SFLtraffic","time":"03-07-2016 06:26:26","user":{"name":"Total Traffic Miami","id":"249831776","screenName":"TotalTrafficMIA","url":"www.twitter.com\/TotalTrafficMIA"}}},{"geometry":{"coordinates":[-0.1257026,51.5011248],"type":"Point"},"id":"749383768448835585","type":"Feature","properties":{"retweet":0,"text":"London Is awesome..!! bigben londoneye?  Big Ben, London - Palace wlnk","time":"03-07-2016 06:26:27","user":{"name":"MAURICIO GUEVARA RDZ","id":"134683462","screenName":"mauriciogr09","url":"www.twitter.com\/mauriciogr09"}}},{"geometry":{"coordinates":[100.45,5.1],"type":"Point"},"id":"749383773712711686","type":"Feature","properties":{"retweet":0,"text":"good morning. splendid view to start with ?  Titi Serong, Perak, Malaysia wlnk","time":"03-07-2016 06:26:29","user":{"name":"jerkarse","id":"444490903","screenName":"edinhissham","url":"www.twitter.com\/edinhissham"}}},{"geometry":{"coordinates":[0.69555556,51.745],"type":"Point"},"id":"749383893137166336","type":"Feature","properties":{"retweet":0,"text":"Heybridge Weather 03\/07\/16 at 00:26 Temp 12.1C, 24hr rain 0.3mm, Pressure 1012.4mb, WindE 0.0mph","time":"03-07-2016 06:26:57","user":{"name":"Mike","id":"221797505","screenName":"Maplemarauder","url":"www.twitter.com\/Maplemarauder"}}},{"geometry":{"coordinates":[-70.6472,43.1425],"type":"Point"},"id":"749383902402375680","type":"Feature","properties":{"retweet":0,"text":"new england efficiency ??  York Harbor, Maine wlnk","time":"03-07-2016 06:26:59","user":{"name":"mollie chen","id":"20162446","screenName":"molliechen","url":"www.twitter.com\/molliechen"}}},{"geometry":{"coordinates":[-85.1802699,34.29039],"type":"Point"},"id":"749383940478164992","type":"Feature","properties":{"retweet":0,"text":"Join the Emerson Electric Co team! See our latest Engineering job opening here: wlnk Rome, GA wlnk","time":"03-07-2016 06:27:08","user":{"name":"Emerson","id":"2194738604","screenName":"Emerson_Careers","url":"www.twitter.com\/Emerson_Careers"}}},{"geometry":{"coordinates":[-83.7397,42.86302],"type":"Point"},"id":"749383952163414016","type":"Feature","properties":{"retweet":0,"text":"Accident, right lane blocked in Genesee on US-23 SB at Thompson Rd traffic wlnk","time":"03-07-2016 06:27:11","user":{"name":"TTWN Detroit","id":"249409119","screenName":"TotalTrafficDET","url":"www.twitter.com\/TotalTrafficDET"}}},{"geometry":{"coordinates":[-0.12731805,51.50711486],"type":"Point"},"id":"749383961512517632","type":"Feature","properties":{"retweet":0,"text":"I am Abby's muse  London, United Kingdom wlnk","time":"03-07-2016 06:27:13","user":{"name":"Kennah Shaw","id":"554735038","screenName":"kmorgs_","url":"www.twitter.com\/kmorgs_"}}},{"geometry":{"coordinates":[-123.01232152,37.6996704],"type":"Point"},"id":"749383963916075010","type":"Feature","properties":{"retweet":0,"text":"Photo: Shot of a plane tail while in flight wlnk","time":"03-07-2016 06:27:14","user":{"name":"Kent Palmer","id":"3182114972","screenName":"kepamer","url":"www.twitter.com\/kepamer"}}},{"geometry":{"coordinates":[-94.5284,39.2661],"type":"Point"},"id":"749384038239076353","type":"Feature","properties":{"retweet":0,"text":"Stout weather in July? Thanks Chad! - Drinking a Caff Americano by CigarCityBeer  Beer Fridge By HFD  wlnk","time":"03-07-2016 06:27:32","user":{"name":"Jeff Zeltwanger","id":"496619775","screenName":"jeffzeltwanger","url":"www.twitter.com\/jeffzeltwanger"}}},{"geometry":{"coordinates":[-0.10262994,51.49094476],"type":"Point"},"id":"749384043565817860","type":"Feature","properties":{"retweet":0,"text":"Sorry I'm about to flood the gram ??????  Wembley Stadium, London wlnk","time":"03-07-2016 06:27:33","user":{"name":"?r?tidayo Zaccheaus","id":"239070619","screenName":"Iretidee99","url":"www.twitter.com\/Iretidee99"}}},{"geometry":{"coordinates":[54.37128276,24.50052963],"type":"Point"},"id":"749384060527599616","type":"Feature","properties":{"retweet":0,"text":"I kinda like this instant camera.. ???  Southern Sun Abu Dhabi wlnk","time":"03-07-2016 06:27:37","user":{"name":"KaterinaAchas","id":"2928679916","screenName":"achas_katerina","url":"www.twitter.com\/achas_katerina"}}},{"geometry":{"coordinates":[-123.12109067,49.2814375],"type":"Point"},"id":"749458432516722688","type":"Feature","properties":{"retweet":0,"text":"'The people have been tricked': Brexit protests rock London wlnk","time":"03-07-2016 11:23:09","user":{"name":"Vancouver Press","id":"67898674","screenName":"Vancouver_CP","url":"www.twitter.com\/Vancouver_CP"}}},{"geometry":{"coordinates":[101.7123871,3.1478524],"type":"Point"},"id":"749458474703134724","type":"Feature","properties":{"retweet":0,"text":"Lunchtime! nandos cheekynandos gf date love kualalumpur malaysia pavilion hot  wlnk","time":"03-07-2016 11:23:19","user":{"name":"DuncanD","id":"217409270","screenName":"DuncanDouglas89","url":"www.twitter.com\/DuncanDouglas89"}}},{"geometry":{"coordinates":[-80.01583333,40.44666667],"type":"Point"},"id":"749458457187655680","type":"Feature","properties":{"retweet":0,"text":"Ultimate event of the summer with my trooper ????? kennychesney wlnk","time":"03-07-2016 11:23:15","user":{"name":"Alli Puz","id":"1613591910","screenName":"allipuzyall","url":"www.twitter.com\/allipuzyall"}}},{"geometry":{"coordinates":[-117.19881853,32.73235093],"type":"Point"},"id":"749458555384766464","type":"Feature","properties":{"retweet":0,"text":"Six more hours of this until our flight. Still worth the $1k in wlnk","time":"03-07-2016 11:23:38","user":{"name":"Samuel Davis III","id":"44071227","screenName":"DarkN4cer","url":"www.twitter.com\/DarkN4cer"}}},{"geometry":{"coordinates":[0.69555556,51.745],"type":"Point"},"id":"749458635835736064","type":"Feature","properties":{"retweet":0,"text":"Heybridge Weather 03\/07\/16 at 05:23 Temp 9.3C, 24hr rain 0.3mm, Pressure 1013.3mb, WindSE 0.0mph","time":"03-07-2016 11:23:57","user":{"name":"Mike","id":"221797505","screenName":"Maplemarauder","url":"www.twitter.com\/Maplemarauder"}}},{"geometry":{"coordinates":[-80.28857,25.78426],"type":"Point"},"id":"749458686796394496","type":"Feature","properties":{"retweet":0,"text":"Accident cleared in MiamiDade on SR-836 Dolphin Expy EB at NW 57th Ave SFLtraffic wlnk","time":"03-07-2016 11:24:09","user":{"name":"Total Traffic Miami","id":"249831776","screenName":"TotalTrafficMIA","url":"www.twitter.com\/TotalTrafficMIA"}}},{"geometry":{"coordinates":[103.11647415,3.73746181],"type":"Point"},"id":"749458709890338817","type":"Feature","properties":{"retweet":0,"text":"Reminiscing of how my life would be if i did go to Unvrsty Malaysia Pahang ( Plaza Tol Gambang in Gambang, Pahang) wlnk","time":"03-07-2016 11:24:15","user":{"name":"Sapik din Gea","id":"715338628197523456","screenName":"xaviqaddin","url":"www.twitter.com\/xaviqaddin"}}},{"geometry":{"coordinates":[-0.08777778,51.50805556],"type":"Point"},"id":"749458719864266752","type":"Feature","properties":{"retweet":0,"text":"londonbridge robin29bdaytrip robintravels london  London Bridge wlnk","time":"03-07-2016 11:24:17","user":{"name":"One Fly Naptural","id":"1017681020","screenName":"robinAKAbyrd","url":"www.twitter.com\/robinAKAbyrd"}}},{"geometry":{"coordinates":[34.2718529,-0.0835555],"type":"Point"},"id":"749458782716039168","type":"Feature","properties":{"retweet":0,"text":"pllkjh0 Alifeinpost_ Sorry for the event!","time":"03-07-2016 11:24:32","user":{"name":"Morris Ouma Omondi","id":"4571465866","screenName":"MorrisOumaOmon2","url":"www.twitter.com\/MorrisOumaOmon2"}}},{"geometry":{"coordinates":[-0.17699628,51.16024654],"type":"Point"},"id":"749458899015700480","type":"Feature","properties":{"retweet":0,"text":"6am flight, lights in the sky.  North Terminal - Gatwick Airport wlnk","time":"03-07-2016 11:25:00","user":{"name":"Simona Pietropaolo","id":"184087729","screenName":"elefanterrible","url":"www.twitter.com\/elefanterrible"}}},{"geometry":{"coordinates":[-83.00009,40.01511],"type":"Point"},"id":"749459085943115776","type":"Feature","properties":{"retweet":0,"text":"Accident in Columbus on Hudson St at Summit St traffic wlnk","time":"03-07-2016 11:25:45","user":{"name":"TTWN Columbus","id":"930775286","screenName":"TotalTrafficCMH","url":"www.twitter.com\/TotalTrafficCMH"}}},{"geometry":{"coordinates":[-73.8451951,40.7548906],"type":"Point"},"id":"749459118188998656","type":"Feature","properties":{"retweet":0,"text":"You couldn't ask for a better night to watch a baseball game. The weather was perfect, the wlnk","time":"03-07-2016 11:25:52","user":{"name":"Angie Vuyst","id":"110401631","screenName":"AngieVuyst","url":"www.twitter.com\/AngieVuyst"}}},{"geometry":{"coordinates":[88.4333,26.7],"type":"Point"},"id":"749459145582051328","type":"Feature","properties":{"retweet":0,"text":"Cool Raining Awesome Weather  Siliguri, West Bengal wlnk","time":"03-07-2016 11:25:59","user":{"name":"I Love Siliguri","id":"2463000109","screenName":"ILoveSiliguri","url":"www.twitter.com\/ILoveSiliguri"}}},{"geometry":{"coordinates":[-2.92268822,54.36311287],"type":"Point"},"id":"749459297659023360","type":"Feature","properties":{"retweet":0,"text":"Fly high - Lake Windermere, The Lake District, UK  Lake Windermere, The Lake District wlnk","time":"03-07-2016 11:26:35","user":{"name":"Aakash Kamble","id":"61762261","screenName":"aakash4518","url":"www.twitter.com\/aakash4518"}}},{"geometry":{"coordinates":[-74.21207,40.55509],"type":"Point"},"id":"749459353518825473","type":"Feature","properties":{"retweet":0,"text":"Accident in StatenIsland on The W Shore Xpwy NB at Arthur Kill Rd traffic wlnk","time":"03-07-2016 11:26:48","user":{"name":"Total Traffic NYC","id":"42640432","screenName":"TotalTrafficNYC","url":"www.twitter.com\/TotalTrafficNYC"}}},{"geometry":{"coordinates":[0.98694444,51.87472222],"type":"Point"},"id":"749459596956299264","type":"Feature","properties":{"retweet":0,"text":"Wind 0.7 mph WNW Barometer 1016.7 mb,Rising slowly Temperature 10.8 .C Rain today 0.0 mm Humidity 34%  05:30:06. ukweather. weather","time":"03-07-2016 11:27:46","user":{"name":"Elmstead Weather","id":"72431972","screenName":"ElmsteadWeather","url":"www.twitter.com\/ElmsteadWeather"}}},{"geometry":{"coordinates":[-0.08777778,51.50805556],"type":"Point"},"id":"749459688878534656","type":"Feature","properties":{"retweet":0,"text":"robintravels robin29bdaytrip london londonbridge adventuresareforever  London Bridge wlnk","time":"03-07-2016 11:28:08","user":{"name":"One Fly Naptural","id":"1017681020","screenName":"robinAKAbyrd","url":"www.twitter.com\/robinAKAbyrd"}}},{"geometry":{"coordinates":[-82.92511,40.10055],"type":"Point"},"id":"749459748563480576","type":"Feature","properties":{"retweet":0,"text":"Ramp restrictions in Franklin on I-270 WB at SR 3 traffic wlnk","time":"03-07-2016 11:28:23","user":{"name":"TTWN Columbus","id":"930775286","screenName":"TotalTrafficCMH","url":"www.twitter.com\/TotalTrafficCMH"}}},{"geometry":{"coordinates":[-41.9354261,-22.5197946],"type":"Point"},"id":"749459787474141186","type":"Feature","properties":{"retweet":0,"text":"I want a little bit of california with a little bit of london sky, i wanna take my heart to the end of the world and fly away tonight","time":"03-07-2016 11:28:32","user":{"name":"brenda","id":"2333186627","screenName":"cellbikidrauhl","url":"www.twitter.com\/cellbikidrauhl"}}},{"geometry":{"coordinates":[-96.87907,32.8601699],"type":"Point"},"id":"749459820747563008","type":"Feature","properties":{"retweet":0,"text":"Played one of my favorite tracks at the moment at tonight's WONDERGROUND event here at wlnk","time":"03-07-2016 11:28:40","user":{"name":"DJ Roy Montez","id":"61799520","screenName":"DJRoyMontez","url":"www.twitter.com\/DJRoyMontez"}}},{"geometry":{"coordinates":[-0.1271,51.5063],"type":"Point"},"id":"749459863047053313","type":"Feature","properties":{"retweet":0,"text":"On average, London's Trends for last Saturday 2 had 11 characters long: wlnk trndnl","time":"03-07-2016 11:28:50","user":{"name":"London Trends","id":"1267741286","screenName":"trendinaliaLON","url":"www.twitter.com\/trendinaliaLON"}}},{"geometry":{"coordinates":[-115.163889,36.128611],"type":"Point"},"id":"749459898115694592","type":"Feature","properties":{"retweet":0,"text":"Yesterday blasted (like 5 mph in the traffic) trough California to Vegas! In the promised land wlnk","time":"03-07-2016 11:28:58","user":{"name":"J?ppi","id":"549896107","screenName":"jappisavolainen","url":"www.twitter.com\/jappisavolainen"}}}],"type":"FeatureCollection"}
